Nom,Banniere,Adresse,Region,Code_postal,Latitude,Longitude,Prix_regulier,Prix_super,Prix_diesel,rang_region,highlight_carte,is_ghost,date_import
9148-4840 QUEBEC INC,Ultramar,"3528 rue Principale, DUNHAM",Estrie,J0E 1M0,45.14069,-72.800819,172.9,199.9,233.9,1,oui,1,2026-04-28 20:09
9524-1774 Quebec Inc.,Ultramar,"115 rue Principale, Bedford (ville & canton)",Estrie,J0J 2B0,45.120644,-72.991003,172.9,199.9,233.9,1,oui,1,2026-04-28 20:09
Filgo Bedford,Sonic,"75 rue Cyr, CP 988, Bedford (ville & canton)",Estrie,J0J 1A0,45.125926,-72.986748,172.9,194.9,233.9,1,oui,1,2026-04-28 20:09
Dépanneur Woburn Inc.,Harnois,"463 rue Saint-Augustin, Saint-Augustin-de-Woburn",Estrie,G0Y 1R0,45.390898,-70.869912,173.4,197.4,241.9,4,,1,2026-04-28 20:09
9415-9159 QUÉBEC INC.,Petro-Canada,"2 de Fairfax , Stanstead (ville & canton)",Estrie,J0B 3E2,45.023031,-72.088007,175.9,205.9,239.9,5,,1,2026-04-28 20:09
ghost_north,,,Estrie,,46.8,-71.65,,,,,,0,2026-04-28 20:09
ghost_south,,,Estrie,,45.0,-71.65,,,,,,0,2026-04-28 20:09
ghost_west,,,Estrie,,45.9,-72.5,,,,,,0,2026-04-28 20:09
ghost_east,,,Estrie,,45.9,-70.8,,,,,,0,2026-04-28 20:09
