Nom,Banniere,Adresse,Region,Code_postal,Latitude,Longitude,Prix_regulier,Prix_super,Prix_diesel,rang_region,highlight_carte,date_import
Filgo Bedford,Sonic,"75 rue Cyr, CP 988, Bedford (ville & canton)",Estrie,J0J 1A0,45.125926,-72.986748,178.9,200.9,247.9,1,oui,2026-04-16 12:11
9524-1774 Quebec Inc.,Ultramar,"115 rue Principale, Bedford (ville & canton)",Estrie,J0J 2B0,45.120644,-72.991003,182.9,209.9,247.9,2,,2026-04-16 12:11
Dépanneur Woburn Inc.,Harnois,"463 rue Saint-Augustin, Saint-Augustin-de-Woburn",Estrie,G0Y 1R0,45.390898,-70.869912,183.4,207.4,257.9,3,,2026-04-16 12:11
Costco Sherbrooke,Costco,"3800 boul. Monseigneur-Fortier, Sherbrooke",Estrie,J1L 0C8,45.423789,-71.961978,184.9,204.9,,4,,2026-04-16 12:11
9415-9159 QUÉBEC INC.,Petro-Canada,"2 de Fairfax , Stanstead (ville & canton)",Estrie,J0B 3E2,45.023031,-72.088007,186.9,216.9,262.9,5,,2026-04-16 12:11
Couche-Tard inc.,Esso,"3 ch. Fairfax, Stanstead (ville & canton)",Estrie,J0B 3E0,45.023694,-72.087397,186.9,206.9,253.9,5,,2026-04-16 12:11
Garage L.P. inc.,Harnois,"2 rue Junction, Stanstead (ville & canton)",Estrie,J0B 1E0,45.01165,-72.145922,186.9,206.9,253.9,5,,2026-04-16 12:11
Gestion Milton inc.,Esso,"12 rte 137 nord, Sainte-Cécile-de-Milton",Estrie,J0E 2C0,45.483652,-72.758766,186.9,206.9,253.9,5,,2026-04-16 12:11
