Nom,Banniere,Adresse,Region,Code_postal,Latitude,Longitude,Prix_regulier,Prix_super,Prix_diesel,rang_region,highlight_carte,is_ghost,date_import
9524-1774 Quebec Inc.,Ultramar,"115 rue Principale, Bedford (ville & canton)",Estrie,J0J 2B0,45.120644,-72.991003,178.9,205.9,237.9,1,oui,1,2026-04-18 04:09
Filgo Bedford,Sonic,"75 rue Cyr, CP 988, Bedford (ville & canton)",Estrie,J0J 1A0,45.125926,-72.986748,178.9,200.9,237.9,1,oui,1,2026-04-18 04:09
Dépanneur Woburn Inc.,Harnois,"463 rue Saint-Augustin, Saint-Augustin-de-Woburn",Estrie,G0Y 1R0,45.390898,-70.869912,183.4,207.4,257.9,3,,1,2026-04-18 04:09
9148-4840 QUEBEC INC,Ultramar,"3528 rue Principale, DUNHAM",Estrie,J0E 1M0,45.14069,-72.800819,183.9,210.9,247.9,4,,1,2026-04-18 04:09
Costco Sherbrooke,Costco,"3800 boul. Monseigneur-Fortier, Sherbrooke",Estrie,J1L 0C8,45.423789,-71.961978,184.9,204.9,,5,,1,2026-04-18 04:09
ghost_north,,,Estrie,,46.8,-71.65,,,,,,0,2026-04-18 04:09
ghost_south,,,Estrie,,45.0,-71.65,,,,,,0,2026-04-18 04:09
ghost_west,,,Estrie,,45.9,-72.5,,,,,,0,2026-04-18 04:09
ghost_east,,,Estrie,,45.9,-70.8,,,,,,0,2026-04-18 04:09
